{
  "title": "アメリカ横断の旅",
  "_how": "variations[] に旅程案を並べる。label がページ上の切替名（確定ルート / 仮ルート1…）。先頭が初期表示。各案 stops は通る順。type:'air'=フライト, tbd:true=未定スロット（地図に出ない）。案を増やすときは1ブロック追加するだけ。",
  "defaultVariation": "fixed",
  "variations": [
    {
      "id": "fixed",
      "label": "確定ルート",
      "subtitle": "16日間・有給9日の確定枠（2026/10/9〜10/25）。中間ルートは未定。",
      "stops": [
        { "day": 1, "date": "2026-10-09", "type": "air", "city": "自宅 → 羽田/成田空港", "cityEn": "Home → Haneda / Narita (HND/NRT)", "lat": 35.5494, "lng": 139.7798, "nights": 0, "transportToNext": "✈ 約9.5h・日付変更線で“同じ金曜”にSF着", "summary": "金曜は通常通り出勤 → 夜便で出発（有給ゼロ）。機内泊。", "md": "depart-japan" },
        { "day": 1, "date": "2026-10-09", "city": "サンフランシスコ（着・出発地点）", "cityEn": "San Francisco, CA", "lat": 37.7749, "lng": -122.4194, "nights": 3, "transportToNext": "車（ルート未定）", "summary": "【固定】金曜の昼過ぎSFO着。土日でSF観光、レンタカー受取。10/12（月・祝）に横断スタート。", "md": "san-francisco" },
        { "day": 4, "date": "2026-10-12", "tbd": true, "city": "未定（横断1日目）", "nights": 1, "summary": "ルート未定。祝日に出発。→ 🛣️ ルートで案を比較。" },
        { "day": 5, "date": "2026-10-13", "tbd": true, "city": "未定", "nights": 1, "summary": "ルート未定（有給）。" },
        { "day": 6, "date": "2026-10-14", "tbd": true, "city": "未定", "nights": 1, "summary": "ルート未定（有給）。" },
        { "day": 7, "date": "2026-10-15", "tbd": true, "city": "未定", "nights": 1, "summary": "ルート未定（有給）。" },
        { "day": 8, "date": "2026-10-16", "tbd": true, "city": "未定", "nights": 1, "summary": "ルート未定（有給）。" },
        { "day": 9, "date": "2026-10-17", "tbd": true, "city": "未定", "nights": 1, "summary": "ルート未定（土）。" },
        { "day": 10, "date": "2026-10-18", "tbd": true, "city": "未定", "nights": 1, "summary": "ルート未定（日）。" },
        { "day": 11, "date": "2026-10-19", "tbd": true, "city": "未定", "nights": 1, "summary": "ルート未定（有給）。" },
        { "day": 12, "date": "2026-10-20", "tbd": true, "city": "未定", "nights": 1, "summary": "ルート未定（有給）。" },
        { "day": 13, "date": "2026-10-21", "tbd": true, "city": "未定", "nights": 1, "summary": "ルート未定（有給）。" },
        { "day": 14, "date": "2026-10-22", "tbd": true, "city": "未定", "nights": 1, "summary": "ルート未定（有給）。NY手前まで詰める。" },
        { "day": 15, "date": "2026-10-23", "city": "ニューヨーク（着・ゴール）", "cityEn": "New York, NY", "lat": 40.7128, "lng": -74.006, "nights": 1, "transportToNext": "✈ JFK→羽田/成田 約14h（翌日着）", "summary": "【固定】東海岸到達！レンタカー返却。メトロポリタン美術館、セントラルパーク。翌10/24午前も観光しJFKへ。", "md": "new-york" },
        { "day": 16, "date": "2026-10-24", "type": "air", "city": "JFK → 羽田/成田 → 帰宅", "cityEn": "JFK → Haneda / Narita → Home", "lat": 35.5494, "lng": 139.7798, "nights": 0, "transportToNext": null, "summary": "10/24（土）昼にJFK発 → 翌10/25（日）夕に羽田/成田着・帰宅。10/26（月）から通常出勤。", "md": "return-japan" }
      ]
    },
    {
      "id": "plan1",
      "label": "仮ルート1（王道）",
      "subtitle": "王道・西部国立公園＋美術館都市。約5,400km。自然◎/美術館◎の本命案。",
      "stops": [
        { "day": 1, "date": "2026-10-09", "type": "air", "city": "自宅 → 羽田/成田空港", "cityEn": "Home → Haneda / Narita", "lat": 35.5494, "lng": 139.7798, "nights": 0, "transportToNext": "✈ 約9.5h・同日SF着", "summary": "金曜夜便で出発（有給ゼロ）。機内泊。", "md": "depart-japan" },
        { "day": 1, "date": "2026-10-09", "city": "サンフランシスコ", "cityEn": "San Francisco, CA", "lat": 37.7749, "lng": -122.4194, "nights": 3, "transportToNext": "車 約4h", "summary": "金曜昼着。土日でSF観光・車受取。10/12出発。", "md": "san-francisco" },
        { "day": 4, "date": "2026-10-12", "city": "ヨセミテ国立公園", "cityEn": "Yosemite NP, CA", "lat": 37.8651, "lng": -119.5383, "nights": 1, "transportToNext": "車 約3h", "summary": "祝日に横断スタート。エル・キャピタン、巨大セコイア。", "md": "yosemite" },
        { "day": 5, "date": "2026-10-13", "city": "ビショップ（東シエラ）", "cityEn": "Bishop, CA", "lat": 37.3614, "lng": -118.3953, "nights": 1, "transportToNext": "車 約5h", "summary": "Tioga Pass越えの絶景ドライブ。", "md": "bishop" },
        { "day": 6, "date": "2026-10-14", "city": "デスバレー / ラスベガス", "cityEn": "Death Valley & Las Vegas, NV", "lat": 36.1699, "lng": -115.1398, "nights": 1, "transportToNext": "車 約2.5h", "summary": "灼熱の絶景を抜けてVegasへ。", "md": "las-vegas" },
        { "day": 7, "date": "2026-10-15", "city": "ザイオン国立公園", "cityEn": "Zion NP, UT", "lat": 37.2982, "lng": -113.0263, "nights": 1, "transportToNext": "車 約2h", "summary": "The Narrows、垂直の赤い峡谷。", "md": "zion" },
        { "day": 8, "date": "2026-10-16", "city": "ブライスキャニオン", "cityEn": "Bryce Canyon NP, UT", "lat": 37.593, "lng": -112.1871, "nights": 1, "transportToNext": "車 約4.5h", "summary": "フードゥーの大群。日の出が絶景。", "md": "bryce-canyon" },
        { "day": 9, "date": "2026-10-17", "city": "ページ / モニュメントバレー", "cityEn": "Page & Monument Valley, AZ", "lat": 36.998, "lng": -110.0985, "nights": 1, "transportToNext": "車 約2.5h", "summary": "ホースシューベンド、西部劇の聖地。", "md": "monument-valley" },
        { "day": 10, "date": "2026-10-18", "city": "モアブ（アーチーズ）", "cityEn": "Moab, UT", "lat": 38.5733, "lng": -109.5498, "nights": 1, "transportToNext": "車 約5.5h", "summary": "デリケートアーチ、満天の星空。", "md": "moab" },
        { "day": 11, "date": "2026-10-19", "city": "デンバー", "cityEn": "Denver, CO", "lat": 39.7392, "lng": -104.9903, "nights": 1, "transportToNext": "車 約8h", "summary": "ロッキー越え。デンバー美術館。", "md": "denver" },
        { "day": 12, "date": "2026-10-20", "city": "オマハ（大平原）", "cityEn": "Omaha, NE", "lat": 41.2565, "lng": -95.9345, "nights": 1, "transportToNext": "車 約7h", "summary": "アメリカのど真ん中を走る移動日。", "md": "plains" },
        { "day": 13, "date": "2026-10-21", "city": "シカゴ", "cityEn": "Chicago, IL", "lat": 41.8781, "lng": -87.6298, "nights": 1, "transportToNext": "車 約5.5h", "summary": "翌朝シカゴ美術館→ミレニアムパーク。", "md": "chicago" },
        { "day": 14, "date": "2026-10-22", "city": "クリーブランド", "cityEn": "Cleveland, OH", "lat": 41.4993, "lng": -81.6944, "nights": 1, "transportToNext": "車 約7h", "summary": "ロックの殿堂、エリー湖畔。", "md": "cleveland" },
        { "day": 15, "date": "2026-10-23", "city": "ニューヨーク（ゴール）", "cityEn": "New York, NY", "lat": 40.7128, "lng": -74.006, "nights": 1, "transportToNext": "✈ JFK→羽田/成田 約14h", "summary": "メトロポリタン美術館。翌10/24午前観光→JFK。", "md": "new-york" },
        { "day": 16, "date": "2026-10-24", "type": "air", "city": "JFK → 羽田/成田 → 帰宅", "cityEn": "JFK → Haneda / Narita → Home", "lat": 35.5494, "lng": 139.7798, "nights": 0, "transportToNext": null, "summary": "10/24昼JFK発→10/25帰宅。", "md": "return-japan" }
      ]
    },
    {
      "id": "plan2",
      "label": "仮ルート2（南回り）",
      "subtitle": "南回り・グランドキャニオン＋ルート66＋ニューオーリンズ。約6,100km・最長ハードペース。",
      "stops": [
        { "day": 1, "date": "2026-10-09", "type": "air", "city": "自宅 → 羽田/成田空港", "cityEn": "Home → Haneda / Narita", "lat": 35.5494, "lng": 139.7798, "nights": 0, "transportToNext": "✈ 約9.5h・同日SF着", "summary": "金曜夜便で出発（有給ゼロ）。機内泊。", "md": "depart-japan" },
        { "day": 1, "date": "2026-10-09", "city": "サンフランシスコ", "cityEn": "San Francisco, CA", "lat": 37.7749, "lng": -122.4194, "nights": 3, "transportToNext": "車 約6h", "summary": "金曜昼着。土日でSF観光・車受取。10/12出発。", "md": "san-francisco" },
        { "day": 4, "date": "2026-10-12", "city": "ロサンゼルス", "cityEn": "Los Angeles, CA", "lat": 34.0522, "lng": -118.2437, "nights": 1, "transportToNext": "車 約7.5h", "summary": "海岸を南下。ハリウッド/ゲティ美術館（無料）。" },
        { "day": 5, "date": "2026-10-13", "city": "グランドキャニオン", "cityEn": "Grand Canyon NP, AZ", "lat": 36.1069, "lng": -112.1129, "nights": 1, "transportToNext": "車 約1.5h", "summary": "世界遺産の大峡谷。サウスリム。" },
        { "day": 6, "date": "2026-10-14", "city": "フラッグスタッフ（ルート66）", "cityEn": "Flagstaff, AZ", "lat": 35.1983, "lng": -111.6513, "nights": 1, "transportToNext": "車 約4h", "summary": "歴史的ルート66の町。" },
        { "day": 7, "date": "2026-10-15", "city": "アルバカーキ", "cityEn": "Albuquerque, NM", "lat": 35.0844, "lng": -106.6504, "nights": 1, "transportToNext": "車 約1h", "summary": "砂漠の高地都市。" },
        { "day": 8, "date": "2026-10-16", "city": "サンタフェ", "cityEn": "Santa Fe, NM", "lat": 35.687, "lng": -105.9378, "nights": 1, "transportToNext": "車 約8.5h", "summary": "アドビ建築とアートの町。" },
        { "day": 9, "date": "2026-10-17", "city": "オクラホマシティ", "cityEn": "Oklahoma City, OK", "lat": 35.4676, "lng": -97.5164, "nights": 1, "transportToNext": "車 約7h", "summary": "大平原の移動日。" },
        { "day": 10, "date": "2026-10-18", "city": "メンフィス", "cityEn": "Memphis, TN", "lat": 35.1495, "lng": -90.049, "nights": 1, "transportToNext": "車 約6h", "summary": "ブルース発祥、ビールストリート。" },
        { "day": 11, "date": "2026-10-19", "city": "ニューオーリンズ", "cityEn": "New Orleans, LA", "lat": 29.9511, "lng": -90.0715, "nights": 2, "transportToNext": "車 約7h", "summary": "フレンチクォーター、ジャズ、ケイジャン料理。2泊。" },
        { "day": 13, "date": "2026-10-21", "city": "アトランタ", "cityEn": "Atlanta, GA", "lat": 33.749, "lng": -84.388, "nights": 1, "transportToNext": "車 約10h", "summary": "南部の大都市。" },
        { "day": 14, "date": "2026-10-22", "city": "ワシントンDC", "cityEn": "Washington, D.C.", "lat": 38.9072, "lng": -77.0369, "nights": 1, "transportToNext": "車 約4h", "summary": "スミソニアン博物館群（無料）。" },
        { "day": 15, "date": "2026-10-23", "city": "ニューヨーク（ゴール）", "cityEn": "New York, NY", "lat": 40.7128, "lng": -74.006, "nights": 1, "transportToNext": "✈ JFK→羽田/成田 約14h", "summary": "メトロポリタン美術館。翌10/24午前観光→JFK。", "md": "new-york" },
        { "day": 16, "date": "2026-10-24", "type": "air", "city": "JFK → 羽田/成田 → 帰宅", "cityEn": "JFK → Haneda / Narita → Home", "lat": 35.5494, "lng": 139.7798, "nights": 0, "transportToNext": null, "summary": "10/24昼JFK発→10/25帰宅。", "md": "return-japan" }
      ]
    },
    {
      "id": "plan3",
      "label": "仮ルート3（北回り）",
      "subtitle": "北回り・イエローストーン＋大平原＋五大湖。約5,800km。雄大さ重視（10月下旬は降雪注意）。",
      "stops": [
        { "day": 1, "date": "2026-10-09", "type": "air", "city": "自宅 → 羽田/成田空港", "cityEn": "Home → Haneda / Narita", "lat": 35.5494, "lng": 139.7798, "nights": 0, "transportToNext": "✈ 約9.5h・同日SF着", "summary": "金曜夜便で出発（有給ゼロ）。機内泊。", "md": "depart-japan" },
        { "day": 1, "date": "2026-10-09", "city": "サンフランシスコ", "cityEn": "San Francisco, CA", "lat": 37.7749, "lng": -122.4194, "nights": 3, "transportToNext": "車 約3.5h", "summary": "金曜昼着。土日でSF観光・車受取。10/12出発。", "md": "san-francisco" },
        { "day": 4, "date": "2026-10-12", "city": "リノ", "cityEn": "Reno, NV", "lat": 39.5296, "lng": -119.8138, "nights": 1, "transportToNext": "車 約8.5h", "summary": "シエラを越えて砂漠の町へ。" },
        { "day": 5, "date": "2026-10-13", "city": "ソルトレイクシティ", "cityEn": "Salt Lake City, UT", "lat": 40.7608, "lng": -111.891, "nights": 1, "transportToNext": "車 約5h", "summary": "グレートソルト湖、山岳都市。" },
        { "day": 6, "date": "2026-10-14", "city": "イエローストーン / ティトン", "cityEn": "Yellowstone & Grand Teton", "lat": 44.428, "lng": -110.5885, "nights": 2, "transportToNext": "車 約8h", "summary": "間欠泉・野生動物・大自然。2泊（降雪・閉鎖要確認）。" },
        { "day": 8, "date": "2026-10-16", "city": "バッドランズ", "cityEn": "Badlands NP, SD", "lat": 43.8554, "lng": -102.3397, "nights": 1, "transportToNext": "車 約1.5h", "summary": "荒涼とした奇景。" },
        { "day": 9, "date": "2026-10-17", "city": "マウントラシュモア", "cityEn": "Mount Rushmore, SD", "lat": 43.8791, "lng": -103.4591, "nights": 1, "transportToNext": "車 約9h", "summary": "4大統領の巨大彫刻。" },
        { "day": 10, "date": "2026-10-18", "city": "ミネアポリス", "cityEn": "Minneapolis, MN", "lat": 44.9778, "lng": -93.265, "nights": 1, "transportToNext": "車 約6.5h", "summary": "五大湖手前の大都市。" },
        { "day": 11, "date": "2026-10-19", "city": "シカゴ", "cityEn": "Chicago, IL", "lat": 41.8781, "lng": -87.6298, "nights": 2, "transportToNext": "車 約5.5h", "summary": "シカゴ美術館、ミレニアムパーク。2泊。", "md": "chicago" },
        { "day": 13, "date": "2026-10-21", "city": "クリーブランド", "cityEn": "Cleveland, OH", "lat": 41.4993, "lng": -81.6944, "nights": 1, "transportToNext": "車 約4h", "summary": "ロックの殿堂、エリー湖畔。", "md": "cleveland" },
        { "day": 14, "date": "2026-10-22", "city": "ナイアガラの滝", "cityEn": "Niagara Falls, NY", "lat": 43.0962, "lng": -79.0377, "nights": 1, "transportToNext": "車 約7h", "summary": "世界的瀑布。" },
        { "day": 15, "date": "2026-10-23", "city": "ニューヨーク（ゴール）", "cityEn": "New York, NY", "lat": 40.7128, "lng": -74.006, "nights": 1, "transportToNext": "✈ JFK→羽田/成田 約14h", "summary": "メトロポリタン美術館。翌10/24午前観光→JFK。", "md": "new-york" },
        { "day": 16, "date": "2026-10-24", "type": "air", "city": "JFK → 羽田/成田 → 帰宅", "cityEn": "JFK → Haneda / Narita → Home", "lat": 35.5494, "lng": 139.7798, "nights": 0, "transportToNext": null, "summary": "10/24昼JFK発→10/25帰宅。", "md": "return-japan" }
      ]
    }
  ]
}
