{
  "title": "アメリカ横断の旅",
  "subtitle": "14日間・節約しながら西海岸から東海岸へ — Crossing the United States",
  "stops": [
    {
      "day": 1,
      "date": "2026-09-13",
      "city": "サンフランシスコ",
      "cityEn": "San Francisco, CA",
      "lat": 37.7749,
      "lng": -122.4194,
      "nights": 1,
      "transportToNext": "車 約4h",
      "summary": "出発地点。ゴールデンゲート、海岸線（無料）。車を受け取る。",
      "md": "san-francisco"
    },
    {
      "day": 2,
      "date": "2026-09-14",
      "city": "ヨセミテ国立公園",
      "cityEn": "Yosemite NP, CA",
      "lat": 37.8651,
      "lng": -119.5383,
      "nights": 1,
      "transportToNext": "車 約3h",
      "summary": "エル・キャピタン、ハーフドーム、巨大セコイア。公園周辺でキャンプ。",
      "md": "yosemite"
    },
    {
      "day": 3,
      "date": "2026-09-15",
      "city": "ビショップ（東シエラ）",
      "cityEn": "Bishop, CA",
      "lat": 37.3614,
      "lng": -118.3953,
      "nights": 1,
      "transportToNext": "車 約5h",
      "summary": "Tioga Pass越えの絶景ドライブ。キャンプ/安モーテル。",
      "md": "bishop"
    },
    {
      "day": 4,
      "date": "2026-09-16",
      "city": "デスバレー / ラスベガス",
      "cityEn": "Death Valley & Las Vegas, NV",
      "lat": 36.1699,
      "lng": -115.1398,
      "nights": 1,
      "transportToNext": "車 約2.5h",
      "summary": "デスバレーの灼熱の絶景を抜けてVegasへ。Strip外の安モーテル。",
      "md": "las-vegas"
    },
    {
      "day": 5,
      "date": "2026-09-17",
      "city": "ザイオン国立公園",
      "cityEn": "Zion NP, UT",
      "lat": 37.2982,
      "lng": -113.0263,
      "nights": 1,
      "transportToNext": "車 約2h",
      "summary": "The Narrows（川歩き）、垂直の赤い峡谷。キャンプ。",
      "md": "zion"
    },
    {
      "day": 6,
      "date": "2026-09-18",
      "city": "ブライスキャニオン国立公園",
      "cityEn": "Bryce Canyon NP, UT",
      "lat": 37.5930,
      "lng": -112.1871,
      "nights": 1,
      "transportToNext": "車 約4.5h",
      "summary": "フードゥー（尖塔）の大群。日の出が絶景。キャンプ。",
      "md": "bryce-canyon"
    },
    {
      "day": 7,
      "date": "2026-09-19",
      "city": "ページ → モニュメントバレー",
      "cityEn": "Page & Monument Valley, AZ",
      "lat": 36.9980,
      "lng": -110.0985,
      "nights": 1,
      "transportToNext": "車 約2.5h",
      "summary": "ホースシューベンド（無料）、西部劇の聖地でサンセット。Kayenta周辺泊。",
      "md": "monument-valley"
    },
    {
      "day": 8,
      "date": "2026-09-20",
      "city": "モアブ（アーチーズ）",
      "cityEn": "Moab, UT",
      "lat": 38.5733,
      "lng": -109.5498,
      "nights": 1,
      "transportToNext": "車 約5.5h",
      "summary": "デリケートアーチ、無数の天然アーチ、満天の星空。キャンプ。",
      "md": "moab"
    },
    {
      "day": 9,
      "date": "2026-09-21",
      "city": "デンバー",
      "cityEn": "Denver, CO",
      "lat": 39.7392,
      "lng": -104.9903,
      "nights": 1,
      "transportToNext": "車 約8h",
      "summary": "I-70でロッキー越え。デンバー美術館。ホステル。",
      "md": "denver"
    },
    {
      "day": 10,
      "date": "2026-09-22",
      "city": "オマハ（平原横断）",
      "cityEn": "Omaha, NE",
      "lat": 41.2565,
      "lng": -95.9345,
      "nights": 1,
      "transportToNext": "車 約7h",
      "summary": "アメリカの「ど真ん中」をひたすら走る移動日。安モーテル。",
      "md": "plains"
    },
    {
      "day": 11,
      "date": "2026-09-23",
      "city": "シカゴ",
      "cityEn": "Chicago, IL",
      "lat": 41.8781,
      "lng": -87.6298,
      "nights": 2,
      "transportToNext": "車 約5.5h",
      "summary": "シカゴ美術館（世界屈指）、湖畔、ミレニアムパーク（無料）。ホステル。",
      "md": "chicago"
    },
    {
      "day": 13,
      "date": "2026-09-25",
      "city": "クリーブランド",
      "cityEn": "Cleveland, OH",
      "lat": 41.4993,
      "lng": -81.6944,
      "nights": 1,
      "transportToNext": "車 約7h",
      "summary": "ロックの殿堂、エリー湖畔。安モーテル。",
      "md": "cleveland"
    },
    {
      "day": 14,
      "date": "2026-09-26",
      "city": "ニューヨーク",
      "cityEn": "New York, NY",
      "lat": 40.7128,
      "lng": -74.0060,
      "nights": 0,
      "transportToNext": null,
      "summary": "ゴール！東海岸到達。メトロポリタン美術館、セントラルパーク。",
      "md": "new-york"
    }
  ]
}
