{
  "_how": "横断の中間ルート案（SF発・NY着で固定、間を比較）。案を増やすときは routes[] に1ブロック追加するだけで routes.html の地図・比較表に反映される。stops は通る順に並べる。",
  "fixed": {
    "start": { "name": "サンフランシスコ", "lat": 37.7749, "lng": -122.4194 },
    "goal": { "name": "ニューヨーク", "lat": 40.7128, "lng": -74.006 },
    "drivingDays": 11,
    "window": "2026/10/12（祝）〜10/23 着"
  },
  "routes": [
    {
      "id": "A",
      "name": "プランA：王道・西部国立公園＋美術館都市",
      "color": "#c1442e",
      "concept": "シエラ〜南西部の国立公園を一気に巡り、デンバー・シカゴ・NYの美術館で締める“ベタだが満足度最大”の本命案。",
      "distanceKm": 5400,
      "fit": { "自然": 5, "土地のイベント": 3, "美術館": 5 },
      "highlights": ["ヨセミテ", "ザイオン/ブライス", "モニュメントバレー", "アーチーズ", "シカゴ美術館", "メトロポリタン美術館"],
      "caution": "南西部の公園が連続しハイペース。日々の走行は中〜長め。",
      "stops": [
        { "name": "サンフランシスコ", "lat": 37.7749, "lng": -122.4194 },
        { "name": "ヨセミテ国立公園", "lat": 37.8651, "lng": -119.5383 },
        { "name": "ビショップ（東シエラ）", "lat": 37.3614, "lng": -118.3953 },
        { "name": "デスバレー / ラスベガス", "lat": 36.1699, "lng": -115.1398 },
        { "name": "ザイオン国立公園", "lat": 37.2982, "lng": -113.0263 },
        { "name": "ブライスキャニオン", "lat": 37.593, "lng": -112.1871 },
        { "name": "ページ / モニュメントバレー", "lat": 36.998, "lng": -110.0985 },
        { "name": "モアブ（アーチーズ）", "lat": 38.5733, "lng": -109.5498 },
        { "name": "デンバー", "lat": 39.7392, "lng": -104.9903 },
        { "name": "オマハ（大平原）", "lat": 41.2565, "lng": -95.9345 },
        { "name": "シカゴ", "lat": 41.8781, "lng": -87.6298 },
        { "name": "クリーブランド", "lat": 41.4993, "lng": -81.6944 },
        { "name": "ニューヨーク", "lat": 40.7128, "lng": -74.006 }
      ]
    },
    {
      "id": "B",
      "name": "プランB：南回り・グランドキャニオン＋ルート66＋ニューオーリンズ",
      "color": "#d6892b",
      "concept": "グランドキャニオンとルート66を走り、メンフィス〜ニューオーリンズの音楽・南部文化を抜けてDC経由でNYへ。morioの行きたい（GC・ニューオーリンズ）を満たす案。",
      "distanceKm": 6100,
      "fit": { "自然": 4, "土地のイベント": 5, "美術館": 4 },
      "highlights": ["グランドキャニオン", "ルート66", "サンタフェ", "メンフィス（音楽）", "ニューオーリンズ", "ワシントンDC（スミソニアン）"],
      "caution": "総距離が最長でハードペース。ニューオーリンズ〜NYの北上が長い。",
      "stops": [
        { "name": "サンフランシスコ", "lat": 37.7749, "lng": -122.4194 },
        { "name": "ロサンゼルス", "lat": 34.0522, "lng": -118.2437 },
        { "name": "グランドキャニオン", "lat": 36.1069, "lng": -112.1129 },
        { "name": "フラッグスタッフ（ルート66）", "lat": 35.1983, "lng": -111.6513 },
        { "name": "アルバカーキ", "lat": 35.0844, "lng": -106.6504 },
        { "name": "サンタフェ", "lat": 35.687, "lng": -105.9378 },
        { "name": "オクラホマシティ", "lat": 35.4676, "lng": -97.5164 },
        { "name": "メンフィス", "lat": 35.1495, "lng": -90.049 },
        { "name": "ニューオーリンズ", "lat": 29.9511, "lng": -90.0715 },
        { "name": "アトランタ", "lat": 33.749, "lng": -84.388 },
        { "name": "ワシントンDC", "lat": 38.9072, "lng": -77.0369 },
        { "name": "ニューヨーク", "lat": 40.7128, "lng": -74.006 }
      ]
    },
    {
      "id": "C",
      "name": "プランC：北回り・イエローストーン＋大平原＋五大湖",
      "color": "#2f7d4f",
      "concept": "イエローストーン/ティトンの大自然とバッドランズ・ラシュモア、五大湖とナイアガラを巡る北ルート。雄大さ重視。",
      "distanceKm": 5800,
      "fit": { "自然": 5, "土地のイベント": 3, "美術館": 3 },
      "highlights": ["イエローストーン", "グランドティトン", "バッドランズ", "マウントラシュモア", "シカゴ美術館", "ナイアガラの滝"],
      "caution": "10月下旬は高地で降雪・道路閉鎖の恐れ（イエローストーン要確認）。",
      "stops": [
        { "name": "サンフランシスコ", "lat": 37.7749, "lng": -122.4194 },
        { "name": "リノ", "lat": 39.5296, "lng": -119.8138 },
        { "name": "ソルトレイクシティ", "lat": 40.7608, "lng": -111.891 },
        { "name": "イエローストーン / ティトン", "lat": 44.428, "lng": -110.5885 },
        { "name": "バッドランズ", "lat": 43.8554, "lng": -102.3397 },
        { "name": "マウントラシュモア", "lat": 43.8791, "lng": -103.4591 },
        { "name": "ミネアポリス", "lat": 44.9778, "lng": -93.265 },
        { "name": "シカゴ", "lat": 41.8781, "lng": -87.6298 },
        { "name": "クリーブランド", "lat": 41.4993, "lng": -81.6944 },
        { "name": "ナイアガラの滝", "lat": 43.0962, "lng": -79.0377 },
        { "name": "ニューヨーク", "lat": 40.7128, "lng": -74.006 }
      ]
    }
  ]
}
